$GPGGA,105059.091,3117.438,N,12112.718,E,1,12,1.0,0.0,M,0.0,M,,*6A
$GPGSA,A,3,01,02,03,04,05,06,07,08,09,10,11,12,1.0,1.0,1.0*30
$GPRMC,105059.091,A,3117.438,N,12112.718,E,007.1,116.6,040522,000.0,W*79
$GPGGA,105100.091,3117.437,N,12112.720,E,1,12,1.0,0.0,M,0.0,M,,*63
$GPGSA,A,3,01,02,03,04,05,06,07,08,09,10,11,12,1.0,1.0,1.0*30
$GPRMC,105100.091,A,3117.437,N,12112.720,E,009.5,045.0,040522,000.0,W*7B
$GPGGA,105101.091,3117.439,N,12112.722,E,1,12,1.0,0.0,M,0.0,M,,*6E
$GPGSA,A,3,01,02,03,04,05,06,07,08,09,10,11,12,1.0,1.0,1.0*30
$GPRMC,105101.091,A,3117.439,N,12112.722,E,007.8,333.5,040522,000.0,W*72
$GPGGA,105102.091,3117.441,N,12112.721,E,1,12,1.0,0.0,M,0.0,M,,*61
$GPGSA,A,3,01,02,03,04,05,06,07,08,09,10,11,12,1.0,1.0,1.0*30
$GPRMC,105102.091,A,3117.441,N,12112.721,E,009.2,270.0,040522,000.0,W*7A
$GPGGA,105103.091,3117.441,N,12112.718,E,1,12,1.0,0.0,M,0.0,M,,*6A
$GPGSA,A,3,01,02,03,04,05,06,07,08,09,10,11,12,1.0,1.0,1.0*30
$GPRMC,105103.091,A,3117.441,N,12112.718,E,009.5,225.0,040522,000.0,W*76
$GPGGA,105104.091,3117.439,N,12112.716,E,1,12,1.0,0.0,M,0.0,M,,*6C
$GPGSA,A,3,01,02,03,04,05,06,07,08,09,10,11,12,1.0,1.0,1.0*30
$GPRMC,105104.091,A,3117.439,N,12112.716,E,003.6,180.0,040522,000.0,W*75
$GPGGA,105105.091,3117.438,N,12112.716,E,1,12,1.0,0.0,M,0.0,M,,*6C
$GPGSA,A,3,01,02,03,04,05,06,07,08,09,10,11,12,1.0,1.0,1.0*30
$GPRMC,105105.091,A,3117.438,N,12112.716,E,006.2,090.0,040522,000.0,W*74
$GPGGA,105106.091,3117.438,N,12112.718,E,1,12,1.0,0.0,M,0.0,M,,*61
$GPGSA,A,3,01,02,03,04,05,06,07,08,09,10,11,12,1.0,1.0,1.0*30
$GPRMC,105106.091,A,3117.438,N,12112.718,E,007.1,243.4,040522,000.0,W*73
$GPGGA,105107.091,3117.437,N,12112.716,E,1,12,1.0,0.0,M,0.0,M,,*61
$GPGSA,A,3,01,02,03,04,05,06,07,08,09,10,11,12,1.0,1.0,1.0*30
$GPRMC,105107.091,A,3117.437,N,12112.716,E,004.7,315.0,040522,000.0,W*70
$GPGGA,105108.091,3117.438,N,12112.715,E,1,12,1.0,0.0,M,0.0,M,,*62
$GPGSA,A,3,01,02,03,04,05,06,07,08,09,10,11,12,1.0,1.0,1.0*30
$GPRMC,105108.091,A,3117.438,N,12112.715,E,014.3,296.6,040522,000.0,W*7A
$GPGGA,105109.091,3117.440,N,12112.711,E,1,12,1.0,0.0,M,0.0,M,,*68
$GPGSA,A,3,01,02,03,04,05,06,07,08,09,10,11,12,1.0,1.0,1.0*30
$GPRMC,105109.091,A,3117.440,N,12112.711,E,004.7,315.0,040522,000.0,W*79
$GPGGA,105110.091,3117.441,N,12112.710,E,1,12,1.0,0.0,M,0.0,M,,*60
$GPGSA,A,3,01,02,03,04,05,06,07,08,09,10,11,12,1.0,1.0,1.0*30
$GPRMC,105110.091,A,3117.441,N,12112.710,E,009.5,315.1,040522,000.0,W*7F
$GPGGA,105111.091,3117.443,N,12112.708,E,1,12,1.0,0.0,M,0.0,M,,*6A
$GPGSA,A,3,01,02,03,04,05,06,07,08,09,10,11,12,1.0,1.0,1.0*30
$GPRMC,105111.091,A,3117.443,N,12112.708,E,003.6,000.0,040522,000.0,W*7A
$GPGGA,105112.091,3117.444,N,12112.708,E,1,12,1.0,0.0,M,0.0,M,,*6E
$GPGSA,A,3,01,02,03,04,05,06,07,08,09,10,11,12,1.0,1.0,1.0*30
$GPRMC,105112.091,A,3117.444,N,12112.708,E,009.9,071.5,040522,000.0,W*78
$GPGGA,105113.091,3117.445,N,12112.711,E,1,12,1.0,0.0,M,0.0,M,,*66
$GPGSA,A,3,01,02,03,04,05,06,07,08,09,10,11,12,1.0,1.0,1.0*30
$GPRMC,105113.091,A,3117.445,N,12112.711,E,009.9,288.5,040522,000.0,W*74
$GPGGA,105114.091,3117.446,N,12112.708,E,1,12,1.0,0.0,M,0.0,M,,*6A
$GPGSA,A,3,01,02,03,04,05,06,07,08,09,10,11,12,1.0,1.0,1.0*30
$GPRMC,105114.091,A,3117.446,N,12112.708,E,007.1,296.6,040522,000.0,W*72
$GPGGA,105115.091,3117.447,N,12112.706,E,1,12,1.0,0.0,M,0.0,M,,*64
$GPGSA,A,3,01,02,03,04,05,06,07,08,09,10,11,12,1.0,1.0,1.0*30
$GPRMC,105115.091,A,3117.447,N,12112.706,E,011.7,236.3,040522,000.0,W*72
$GPGGA,105116.091,3117.445,N,12112.703,E,1,12,1.0,0.0,M,0.0,M,,*60
$GPGSA,A,3,01,02,03,04,05,06,07,08,09,10,11,12,1.0,1.0,1.0*30
$GPRMC,105116.091,A,3117.445,N,12112.703,E,009.9,251.5,040522,000.0,W*76
$GPGGA,105117.091,3117.444,N,12112.700,E,1,12,1.0,0.0,M,0.0,M,,*63
$GPGSA,A,3,01,02,03,04,05,06,07,08,09,10,11,12,1.0,1.0,1.0*30
$GPRMC,105117.091,A,3117.444,N,12112.700,E,007.8,206.5,040522,000.0,W*78
$GPGGA,105118.091,3117.442,N,12112.699,E,1,12,1.0,0.0,M,0.0,M,,*6B
$GPGSA,A,3,01,02,03,04,05,06,07,08,09,10,11,12,1.0,1.0,1.0*30
$GPRMC,105118.091,A,3117.442,N,12112.699,E,007.8,206.5,040522,000.0,W*70
$GPGGA,105119.091,3117.440,N,12112.698,E,1,12,1.0,0.0,M,0.0,M,,*69
$GPGSA,A,3,01,02,03,04,05,06,07,08,09,10,11,12,1.0,1.0,1.0*30
$GPRMC,105119.091,A,3117.440,N,12112.698,E,004.7,224.9,040522,000.0,W*72
$GPGGA,105120.091,3117.439,N,12112.697,E,1,12,1.0,0.0,M,0.0,M,,*62
$GPGSA,A,3,01,02,03,04,05,06,07,08,09,10,11,12,1.0,1.0,1.0*30
$GPRMC,105120.091,A,3117.439,N,12112.697,E,007.8,206.5,040522,000.0,W*79
$GPGGA,105121.091,3117.437,N,12112.696,E,1,12,1.0,0.0,M,0.0,M,,*6C
$GPGSA,A,3,01,02,03,04,05,06,07,08,09,10,11,12,1.0,1.0,1.0*30
$GPRMC,105121.091,A,3117.437,N,12112.696,E,011.7,123.7,040522,000.0,W*79
$GPGGA,105122.091,3117.435,N,12112.699,E,1,12,1.0,0.0,M,0.0,M,,*62
$GPGSA,A,3,01,02,03,04,05,06,07,08,09,10,11,12,1.0,1.0,1.0*30
$GPRMC,105122.091,A,3117.435,N,12112.699,E,006.2,090.0,040522,000.0,W*7A
$GPGGA,105123.091,3117.435,N,12112.701,E,1,12,1.0,0.0,M,0.0,M,,*63
$GPGSA,A,3,01,02,03,04,05,06,07,08,09,10,11,12,1.0,1.0,1.0*30
$GPRMC,105123.091,A,3117.435,N,12112.701,E,007.1,116.6,040522,000.0,W*70
$GPGGA,105124.091,3117.434,N,12112.703,E,1,12,1.0,0.0,M,0.0,M,,*67
$GPGSA,A,3,01,02,03,04,05,06,07,08,09,10,11,12,1.0,1.0,1.0*30
$GPRMC,105124.091,A,3117.434,N,12112.703,E,007.1,116.6,040522,000.0,W*74
$GPGGA,105125.091,3117.433,N,12112.705,E,1,12,1.0,0.0,M,0.0,M,,*67
$GPGSA,A,3,01,02,03,04,05,06,07,08,09,10,11,12,1.0,1.0,1.0*30
$GPRMC,105125.091,A,3117.433,N,12112.705,E,007.1,116.6,040522,000.0,W*74
$GPGGA,105126.091,3117.432,N,12112.707,E,1,12,1.0,0.0,M,0.0,M,,*67
$GPGSA,A,3,01,02,03,04,05,06,07,08,09,10,11,12,1.0,1.0,1.0*30
$GPRMC,105126.091,A,3117.432,N,12112.707,E,009.9,108.5,040522,000.0,W*7E
$GPGGA,105127.091,3117.431,N,12112.710,E,1,12,1.0,0.0,M,0.0,M,,*63
$GPGSA,A,3,01,02,03,04,05,06,07,08,09,10,11,12,1.0,1.0,1.0*30
$GPRMC,105127.091,A,3117.431,N,12112.710,E,003.1,090.0,040522,000.0,W*7D
$GPGGA,105128.091,3117.431,N,12112.711,E,1,12,1.0,0.0,M,0.0,M,,*6D
$GPGSA,A,3,01,02,03,04,05,06,07,08,09,10,11,12,1.0,1.0,1.0*30
$GPRMC,105128.091,A,3117.431,N,12112.711,E,007.1,116.6,040522,000.0,W*7E
$GPGGA,105129.091,3117.430,N,12112.713,E,1,12,1.0,0.0,M,0.0,M,,*6F
$GPGSA,A,3,01,02,03,04,05,06,07,08,09,10,11,12,1.0,1.0,1.0*30
$GPRMC,105129.091,A,3117.430,N,12112.713,E,007.1,116.6,040522,000.0,W*7C
$GPGGA,105130.091,3117.429,N,12112.715,E,1,12,1.0,0.0,M,0.0,M,,*69
$GPGSA,A,3,01,02,03,04,05,06,07,08,09,10,11,12,1.0,1.0,1.0*30
$GPRMC,105130.091,A,3117.429,N,12112.715,E,009.9,288.5,040522,000.0,W*7B
$GPGGA,105131.091,3117.430,N,12112.712,E,1,12,1.0,0.0,M,0.0,M,,*67
$GPGSA,A,3,01,02,03,04,05,06,07,08,09,10,11,12,1.0,1.0,1.0*30
$GPRMC,105131.091,A,3117.430,N,12112.712,E,003.6,180.0,040522,000.0,W*7E
$GPGGA,105132.091,3117.429,N,12112.712,E,1,12,1.0,0.0,M,0.0,M,,*6C
$GPGSA,A,3,01,02,03,04,05,06,07,08,09,10,11,12,1.0,1.0,1.0*30
$GPRMC,105132.091,A,3117.429,N,12112.712,E,007.8,153.5,040522,000.0,W*74
$GPGGA,105133.091,3117.427,N,12112.713,E,1,12,1.0,0.0,M,0.0,M,,*62
$GPGSA,A,3,01,02,03,04,05,06,07,08,09,10,11,12,1.0,1.0,1.0*30
$GPRMC,105133.091,A,3117.427,N,12112.713,E,007.8,153.5,040522,000.0,W*7A
$GPGGA,105134.091,3117.425,N,12112.714,E,1,12,1.0,0.0,M,0.0,M,,*60
$GPGSA,A,3,01,02,03,04,05,06,07,08,09,10,11,12,1.0,1.0,1.0*30
$GPRMC,105134.091,A,3117.425,N,12112.714,E,007.8,206.5,040522,000.0,W*7B
$GPGGA,105135.091,3117.423,N,12112.713,E,1,12,1.0,0.0,M,0.0,M,,*60
$GPGSA,A,3,01,02,03,04,05,06,07,08,09,10,11,12,1.0,1.0,1.0*30
$GPRMC,105135.091,A,3117.423,N,12112.713,E,025.4,351.9,040522,000.0,W*78
$GPGGA,105136.091,3117.430,N,12112.712,E,1,12,1.0,0.0,M,0.0,M,,*60
$GPGSA,A,3,01,02,03,04,05,06,07,08,09,10,11,12,1.0,1.0,1.0*30
$GPRMC,105136.091,A,3117.430,N,12112.712,E,007.1,296.6,040522,000.0,W*78
$GPGGA,105137.091,3117.431,N,12112.710,E,1,12,1.0,0.0,M,0.0,M,,*62
$GPGSA,A,3,01,02,03,04,05,06,07,08,09,10,11,12,1.0,1.0,1.0*30
$GPRMC,105137.091,A,3117.431,N,12112.710,E,034.0,291.8,040522,000.0,W*72
$GPGGA,105138.091,3117.435,N,12112.700,E,1,12,1.0,0.0,M,0.0,M,,*68
$GPGSA,A,3,01,02,03,04,05,06,07,08,09,10,11,12,1.0,1.0,1.0*30
$GPRMC,105138.091,A,3117.435,N,12112.700,E,014.3,296.6,040522,000.0,W*70
$GPGGA,105139.091,3117.437,N,12112.696,E,1,12,1.0,0.0,M,0.0,M,,*65
$GPGSA,A,3,01,02,03,04,05,06,07,08,09,10,11,12,1.0,1.0,1.0*30
$GPRMC,105139.091,A,3117.437,N,12112.696,E,007.8,206.5,040522,000.0,W*7E
$GPGGA,105140.091,3117.435,N,12112.695,E,1,12,1.0,0.0,M,0.0,M,,*6A
$GPGSA,A,3,01,02,03,04,05,06,07,08,09,10,11,12,1.0,1.0,1.0*30
$GPRMC,105140.091,A,3117.435,N,12112.695,E,009.5,225.0,040522,000.0,W*76
$GPGGA,105141.091,3117.433,N,12112.693,E,1,12,1.0,0.0,M,0.0,M,,*6B
$GPGSA,A,3,01,02,03,04,05,06,07,08,09,10,11,12,1.0,1.0,1.0*30
$GPRMC,105141.091,A,3117.433,N,12112.693,E,007.8,206.5,040522,000.0,W*70
$GPGGA,105142.091,3117.431,N,12112.692,E,1,12,1.0,0.0,M,0.0,M,,*6B
$GPGSA,A,3,01,02,03,04,05,06,07,08,09,10,11,12,1.0,1.0,1.0*30
$GPRMC,105142.091,A,3117.431,N,12112.692,E,007.8,206.5,040522,000.0,W*70
$GPGGA,105143.091,3117.429,N,12112.691,E,1,12,1.0,0.0,M,0.0,M,,*60
$GPGSA,A,3,01,02,03,04,05,06,07,08,09,10,11,12,1.0,1.0,1.0*30
$GPRMC,105143.091,A,3117.429,N,12112.691,E,004.7,225.0,040522,000.0,W*73
$GPGGA,105144.091,3117.428,N,12112.690,E,1,12,1.0,0.0,M,0.0,M,,*67
$GPGSA,A,3,01,02,03,04,05,06,07,08,09,10,11,12,1.0,1.0,1.0*30
$GPRMC,105144.091,A,3117.428,N,12112.690,E,007.8,206.5,040522,000.0,W*7C
$GPGGA,105145.091,3117.426,N,12112.689,E,1,12,1.0,0.0,M,0.0,M,,*60
$GPGSA,A,3,01,02,03,04,05,06,07,08,09,10,11,12,1.0,1.0,1.0*30
$GPRMC,105145.091,A,3117.426,N,12112.689,E,004.7,135.0,040522,000.0,W*71
$GPGGA,105146.091,3117.425,N,12112.690,E,1,12,1.0,0.0,M,0.0,M,,*68
$GPGSA,A,3,01,02,03,04,05,06,07,08,09,10,11,12,1.0,1.0,1.0*30
$GPRMC,105146.091,A,3117.425,N,12112.690,E,007.1,116.6,040522,000.0,W*7B
$GPGGA,105147.091,3117.424,N,12112.692,E,1,12,1.0,0.0,M,0.0,M,,*6A
$GPGSA,A,3,01,02,03,04,05,06,07,08,09,10,11,12,1.0,1.0,1.0*30
$GPRMC,105147.091,A,3117.424,N,12112.692,E,007.1,116.6,040522,000.0,W*79
$GPGGA,105148.091,3117.423,N,12112.694,E,1,12,1.0,0.0,M,0.0,M,,*64
$GPGSA,A,3,01,02,03,04,05,06,07,08,09,10,11,12,1.0,1.0,1.0*30
$GPRMC,105148.091,A,3117.423,N,12112.694,E,006.2,090.0,040522,000.0,W*7C
$GPGGA,105149.091,3117.423,N,12112.696,E,1,12,1.0,0.0,M,0.0,M,,*67
$GPGSA,A,3,01,02,03,04,05,06,07,08,09,10,11,12,1.0,1.0,1.0*30
$GPRMC,105149.091,A,3117.423,N,12112.696,E,004.7,135.0,040522,000.0,W*76
$GPGGA,105150.091,3117.422,N,12112.697,E,1,12,1.0,0.0,M,0.0,M,,*6F
$GPGSA,A,3,01,02,03,04,05,06,07,08,09,10,11,12,1.0,1.0,1.0*30
$GPRMC,105150.091,A,3117.422,N,12112.697,E,007.1,116.6,040522,000.0,W*7C
$GPGGA,105151.091,3117.421,N,12112.699,E,1,12,1.0,0.0,M,0.0,M,,*63
$GPGSA,A,3,01,02,03,04,05,06,07,08,09,10,11,12,1.0,1.0,1.0*30
$GPRMC,105151.091,A,3117.421,N,12112.699,E,004.7,135.0,040522,000.0,W*72
$GPGGA,105152.091,3117.420,N,12112.700,E,1,12,1.0,0.0,M,0.0,M,,*60
$GPGSA,A,3,01,02,03,04,05,06,07,08,09,10,11,12,1.0,1.0,1.0*30
$GPRMC,105152.091,A,3117.420,N,12112.700,E,007.1,116.6,040522,000.0,W*73
$GPGGA,105153.091,3117.419,N,12112.702,E,1,12,1.0,0.0,M,0.0,M,,*69
$GPGSA,A,3,01,02,03,04,05,06,07,08,09,10,11,12,1.0,1.0,1.0*30
$GPRMC,105153.091,A,3117.419,N,12112.702,E,006.2,090.0,040522,000.0,W*71
$GPGGA,105154.091,3117.419,N,12112.704,E,1,12,1.0,0.0,M,0.0,M,,*68
$GPGSA,A,3,01,02,03,04,05,06,07,08,09,10,11,12,1.0,1.0,1.0*30
$GPRMC,105154.091,A,3117.419,N,12112.704,E,009.5,135.0,040522,000.0,W*76
$GPGGA,105155.091,3117.417,N,12112.706,E,1,12,1.0,0.0,M,0.0,M,,*65
$GPGSA,A,3,01,02,03,04,05,06,07,08,09,10,11,12,1.0,1.0,1.0*30
$GPRMC,105155.091,A,3117.417,N,12112.706,E,006.2,090.0,040522,000.0,W*7D
$GPGGA,105156.091,3117.417,N,12112.708,E,1,12,1.0,0.0,M,0.0,M,,*68
$GPGSA,A,3,01,02,03,04,05,06,07,08,09,10,11,12,1.0,1.0,1.0*30
$GPRMC,105156.091,A,3117.417,N,12112.708,E,014.3,296.6,040522,000.0,W*70
$GPGGA,105157.091,3117.419,N,12112.704,E,1,12,1.0,0.0,M,0.0,M,,*6B
$GPGSA,A,3,01,02,03,04,05,06,07,08,09,10,11,12,1.0,1.0,1.0*30
$GPRMC,105157.091,A,3117.419,N,12112.704,E,009.9,288.5,040522,000.0,W*79
$GPGGA,105158.091,3117.420,N,12112.701,E,1,12,1.0,0.0,M,0.0,M,,*6B
$GPGSA,A,3,01,02,03,04,05,06,07,08,09,10,11,12,1.0,1.0,1.0*30
$GPRMC,105158.091,A,3117.420,N,12112.701,E,014.3,296.6,040522,000.0,W*73
$GPGGA,105159.091,3117.422,N,12112.697,E,1,12,1.0,0.0,M,0.0,M,,*66
$GPGSA,A,3,01,02,03,04,05,06,07,08,09,10,11,12,1.0,1.0,1.0*30
$GPRMC,105159.091,A,3117.422,N,12112.697,E,009.9,288.5,040522,000.0,W*74
$GPGGA,105200.091,3117.423,N,12112.694,E,1,12,1.0,0.0,M,0.0,M,,*6B
$GPGSA,A,3,01,02,03,04,05,06,07,08,09,10,11,12,1.0,1.0,1.0*30
$GPRMC,105200.091,A,3117.423,N,12112.694,E,014.3,296.6,040522,000.0,W*73
$GPGGA,105201.091,3117.425,N,12112.690,E,1,12,1.0,0.0,M,0.0,M,,*68
$GPGSA,A,3,01,02,03,04,05,06,07,08,09,10,11,12,1.0,1.0,1.0*30
$GPRMC,105201.091,A,3117.425,N,12112.690,E,004.7,315.0,040522,000.0,W*79
$GPGGA,105202.091,3117.426,N,12112.689,E,1,12,1.0,0.0,M,0.0,M,,*60
$GPGSA,A,3,01,02,03,04,05,06,07,08,09,10,11,12,1.0,1.0,1.0*30
$GPRMC,105202.091,A,3117.426,N,12112.689,E,007.8,206.5,040522,000.0,W*7B
$GPGGA,105203.091,3117.424,N,12112.688,E,1,12,1.0,0.0,M,0.0,M,,*62
$GPGSA,A,3,01,02,03,04,05,06,07,08,09,10,11,12,1.0,1.0,1.0*30
$GPRMC,105203.091,A,3117.424,N,12112.688,E,007.8,206.5,040522,000.0,W*79
$GPGGA,105204.091,3117.422,N,12112.687,E,1,12,1.0,0.0,M,0.0,M,,*6C
$GPGSA,A,3,01,02,03,04,05,06,07,08,09,10,11,12,1.0,1.0,1.0*30
$GPRMC,105204.091,A,3117.422,N,12112.687,E,004.7,225.0,040522,000.0,W*7F
$GPGGA,105205.091,3117.421,N,12112.686,E,1,12,1.0,0.0,M,0.0,M,,*6F
$GPGSA,A,3,01,02,03,04,05,06,07,08,09,10,11,12,1.0,1.0,1.0*30
$GPRMC,105205.091,A,3117.421,N,12112.686,E,007.8,206.5,040522,000.0,W*74
$GPGGA,105206.091,3117.419,N,12112.685,E,1,12,1.0,0.0,M,0.0,M,,*64
$GPGSA,A,3,01,02,03,04,05,06,07,08,09,10,11,12,1.0,1.0,1.0*30
$GPRMC,105206.091,A,3117.419,N,12112.685,E,009.5,225.0,040522,000.0,W*78
$GPGGA,105207.091,3117.417,N,12112.683,E,1,12,1.0,0.0,M,0.0,M,,*6D
$GPGSA,A,3,01,02,03,04,05,06,07,08,09,10,11,12,1.0,1.0,1.0*30
$GPRMC,105207.091,A,3117.417,N,12112.683,E,009.2,090.0,040522,000.0,W*7A
$GPGGA,105208.091,3117.417,N,12112.686,E,1,12,1.0,0.0,M,0.0,M,,*67
$GPGSA,A,3,01,02,03,04,05,06,07,08,09,10,11,12,1.0,1.0,1.0*30
$GPRMC,105208.091,A,3117.417,N,12112.686,E,006.2,090.0,040522,000.0,W*7F
$GPGGA,105209.091,3117.417,N,12112.688,E,1,12,1.0,0.0,M,0.0,M,,*68
$GPGSA,A,3,01,02,03,04,05,06,07,08,09,10,11,12,1.0,1.0,1.0*30
$GPRMC,105209.091,A,3117.417,N,12112.688,E,007.1,116.6,040522,000.0,W*7B
$GPGGA,105210.091,3117.416,N,12112.690,E,1,12,1.0,0.0,M,0.0,M,,*68
$GPGSA,A,3,01,02,03,04,05,06,07,08,09,10,11,12,1.0,1.0,1.0*30
$GPRMC,105210.091,A,3117.416,N,12112.690,E,007.8,206.5,040522,000.0,W*73
$GPGGA,105211.091,3117.414,N,12112.689,E,1,12,1.0,0.0,M,0.0,M,,*63
$GPGSA,A,3,01,02,03,04,05,06,07,08,09,10,11,12,1.0,1.0,1.0*30
$GPRMC,105211.091,A,3117.414,N,12112.689,E,007.1,243.4,040522,000.0,W*71
$GPGGA,105212.091,3117.413,N,12112.687,E,1,12,1.0,0.0,M,0.0,M,,*69
$GPGSA,A,3,01,02,03,04,05,06,07,08,09,10,11,12,1.0,1.0,1.0*30
$GPRMC,105212.091,A,3117.413,N,12112.687,E,007.1,243.4,040522,000.0,W*7B
$GPGGA,105213.091,3117.412,N,12112.685,E,1,12,1.0,0.0,M,0.0,M,,*6B
$GPGSA,A,3,01,02,03,04,05,06,07,08,09,10,11,12,1.0,1.0,1.0*30
$GPRMC,105213.091,A,3117.412,N,12112.685,E,007.1,296.6,040522,000.0,W*73
$GPGGA,105214.091,3117.413,N,12112.683,E,1,12,1.0,0.0,M,0.0,M,,*6B
$GPGSA,A,3,01,02,03,04,05,06,07,08,09,10,11,12,1.0,1.0,1.0*30
$GPRMC,105214.091,A,3117.413,N,12112.683,E,007.8,333.5,040522,000.0,W*77
$GPGGA,105215.091,3117.415,N,12112.682,E,1,12,1.0,0.0,M,0.0,M,,*6D
$GPGSA,A,3,01,02,03,04,05,06,07,08,09,10,11,12,1.0,1.0,1.0*30
$GPRMC,105215.091,A,3117.415,N,12112.682,E,004.7,044.9,040522,000.0,W*72
$GPGGA,105216.091,3117.416,N,12112.683,E,1,12,1.0,0.0,M,0.0,M,,*6C
$GPGSA,A,3,01,02,03,04,05,06,07,08,09,10,11,12,1.0,1.0,1.0*30
$GPRMC,105216.091,A,3117.416,N,12112.683,E,004.7,224.9,040522,000.0,W*77
$GPGGA,105217.091,3117.415,N,12112.682,E,1,12,1.0,0.0,M,0.0,M,,*6F
$GPGSA,A,3,01,02,03,04,05,06,07,08,09,10,11,12,1.0,1.0,1.0*30
$GPRMC,105217.091,A,3117.415,N,12112.682,E,021.1,128.7,040522,000.0,W*74
$GPGGA,105218.091,3117.411,N,12112.687,E,1,12,1.0,0.0,M,0.0,M,,*61
$GPGSA,A,3,01,02,03,04,05,06,07,08,09,10,11,12,1.0,1.0,1.0*30
$GPRMC,105218.091,A,3117.411,N,12112.687,E,009.9,108.5,040522,000.0,W*78
$GPGGA,105219.091,3117.410,N,12112.690,E,1,12,1.0,0.0,M,0.0,M,,*67
$GPGSA,A,3,01,02,03,04,05,06,07,08,09,10,11,12,1.0,1.0,1.0*30
$GPRMC,105219.091,A,3117.410,N,12112.690,E,007.1,116.6,040522,000.0,W*74
$GPGGA,105220.091,3117.409,N,12112.692,E,1,12,1.0,0.0,M,0.0,M,,*67
$GPGSA,A,3,01,02,03,04,05,06,07,08,09,10,11,12,1.0,1.0,1.0*30
$GPRMC,105220.091,A,3117.409,N,12112.692,E,007.1,116.6,040522,000.0,W*74
$GPGGA,105221.091,3117.408,N,12112.694,E,1,12,1.0,0.0,M,0.0,M,,*61
$GPGSA,A,3,01,02,03,04,05,06,07,08,09,10,11,12,1.0,1.0,1.0*30
$GPRMC,105221.091,A,3117.408,N,12112.694,E,007.1,116.6,040522,000.0,W*72
$GPGGA,105222.091,3117.407,N,12112.696,E,1,12,1.0,0.0,M,0.0,M,,*6F
$GPGSA,A,3,01,02,03,04,05,06,07,08,09,10,11,12,1.0,1.0,1.0*30
$GPRMC,105222.091,A,3117.407,N,12112.696,E,007.1,116.6,040522,000.0,W*7C
$GPGGA,105223.091,3117.406,N,12112.698,E,1,12,1.0,0.0,M,0.0,M,,*61
$GPGSA,A,3,01,02,03,04,05,06,07,08,09,10,11,12,1.0,1.0,1.0*30
$GPRMC,105223.091,A,3117.406,N,12112.698,E,011.7,123.7,040522,000.0,W*74
$GPGGA,105224.091,3117.404,N,12112.701,E,1,12,1.0,0.0,M,0.0,M,,*65
$GPGSA,A,3,01,02,03,04,05,06,07,08,09,10,11,12,1.0,1.0,1.0*30
$GPRMC,105224.091,A,3117.404,N,12112.701,E,011.7,123.7,040522,000.0,W*70
