$GPGGA,141659.091,3117.438,N,12112.718,E,1,12,1.0,0.0,M,0.0,M,,*6C
$GPGSA,A,3,01,02,03,04,05,06,07,08,09,10,11,12,1.0,1.0,1.0*30
$GPRMC,141659.091,A,3117.438,N,12112.718,E,007.2,091.7,040522,000.0,W*73
$GPGGA,141700.091,3117.437,N,12112.720,E,1,12,1.0,0.0,M,0.0,M,,*65
$GPGSA,A,3,01,02,03,04,05,06,07,08,09,10,11,12,1.0,1.0,1.0*30
$GPRMC,141700.091,A,3117.437,N,12112.720,E,005.5,040.2,040522,000.0,W*76
$GPGGA,141701.091,3117.439,N,12112.722,E,1,12,1.0,0.0,M,0.0,M,,*68
$GPGSA,A,3,01,02,03,04,05,06,07,08,09,10,11,12,1.0,1.0,1.0*30
$GPRMC,141701.091,A,3117.439,N,12112.722,E,010.0,343.3,040522,000.0,W*7B
$GPGGA,141702.091,3117.441,N,12112.721,E,1,12,1.0,0.0,M,0.0,M,,*67
$GPGSA,A,3,01,02,03,04,05,06,07,08,09,10,11,12,1.0,1.0,1.0*30
$GPRMC,141702.091,A,3117.441,N,12112.721,E,009.2,270.0,040522,000.0,W*7C
$GPGGA,141703.091,3117.441,N,12112.718,E,1,12,1.0,0.0,M,0.0,M,,*6C
$GPGSA,A,3,01,02,03,04,05,06,07,08,09,10,11,12,1.0,1.0,1.0*30
$GPRMC,141703.091,A,3117.441,N,12112.718,E,009.1,227.3,040522,000.0,W*75
$GPGGA,141704.091,3117.439,N,12112.716,E,1,12,1.0,0.0,M,0.0,M,,*6A
$GPGSA,A,3,01,02,03,04,05,06,07,08,09,10,11,12,1.0,1.0,1.0*30
$GPRMC,141704.091,A,3117.439,N,12112.716,E,005.6,165.1,040522,000.0,W*7F
$GPGGA,141705.091,3117.438,N,12112.716,E,1,12,1.0,0.0,M,0.0,M,,*6A
$GPGSA,A,3,01,02,03,04,05,06,07,08,09,10,11,12,1.0,1.0,1.0*30
$GPRMC,141705.091,A,3117.438,N,12112.716,E,004.8,100.2,040522,000.0,W*70
$GPGGA,141706.091,3117.438,N,12112.718,E,1,12,1.0,0.0,M,0.0,M,,*67
$GPGSA,A,3,01,02,03,04,05,06,07,08,09,10,11,12,1.0,1.0,1.0*30
$GPRMC,141706.091,A,3117.438,N,12112.718,E,006.3,260.3,040522,000.0,W*70
$GPGGA,141707.091,3117.437,N,12112.716,E,1,12,1.0,0.0,M,0.0,M,,*67
$GPGSA,A,3,01,02,03,04,05,06,07,08,09,10,11,12,1.0,1.0,1.0*30
$GPRMC,141707.091,A,3117.437,N,12112.716,E,004.7,312.7,040522,000.0,W*76
$GPGGA,141708.091,3117.438,N,12112.715,E,1,12,1.0,0.0,M,0.0,M,,*64
$GPGSA,A,3,01,02,03,04,05,06,07,08,09,10,11,12,1.0,1.0,1.0*30
$GPRMC,141708.091,A,3117.438,N,12112.715,E,011.0,292.1,040522,000.0,W*79
$GPGGA,141709.091,3117.440,N,12112.711,E,1,12,1.0,0.0,M,0.0,M,,*6E
$GPGSA,A,3,01,02,03,04,05,06,07,08,09,10,11,12,1.0,1.0,1.0*30
$GPRMC,141709.091,A,3117.440,N,12112.711,E,008.4,312.9,040522,000.0,W*7E
$GPGGA,141710.091,3117.441,N,12112.710,E,1,12,1.0,0.0,M,0.0,M,,*66
$GPGSA,A,3,01,02,03,04,05,06,07,08,09,10,11,12,1.0,1.0,1.0*30
$GPRMC,141710.091,A,3117.441,N,12112.710,E,006.9,315.0,040522,000.0,W*7B
$GPGGA,141711.091,3117.443,N,12112.708,E,1,12,1.0,0.0,M,0.0,M,,*6C
$GPGSA,A,3,01,02,03,04,05,06,07,08,09,10,11,12,1.0,1.0,1.0*30
$GPRMC,141711.091,A,3117.443,N,12112.708,E,005.3,009.5,040522,000.0,W*73
$GPGGA,141712.091,3117.444,N,12112.708,E,1,12,1.0,0.0,M,0.0,M,,*68
$GPGSA,A,3,01,02,03,04,05,06,07,08,09,10,11,12,1.0,1.0,1.0*30
$GPRMC,141712.091,A,3117.444,N,12112.708,E,008.9,078.9,040522,000.0,W*7A
$GPGGA,141713.091,3117.445,N,12112.711,E,1,12,1.0,0.0,M,0.0,M,,*60
$GPGSA,A,3,01,02,03,04,05,06,07,08,09,10,11,12,1.0,1.0,1.0*30
$GPRMC,141713.091,A,3117.445,N,12112.711,E,011.8,289.3,040522,000.0,W*7D
$GPGGA,141714.091,3117.446,N,12112.708,E,1,12,1.0,0.0,M,0.0,M,,*6C
$GPGSA,A,3,01,02,03,04,05,06,07,08,09,10,11,12,1.0,1.0,1.0*30
$GPRMC,141714.091,A,3117.446,N,12112.708,E,004.9,290.8,040522,000.0,W*77
$GPGGA,141715.091,3117.447,N,12112.706,E,1,12,1.0,0.0,M,0.0,M,,*62
$GPGSA,A,3,01,02,03,04,05,06,07,08,09,10,11,12,1.0,1.0,1.0*30
$GPRMC,141715.091,A,3117.447,N,12112.706,E,012.1,250.1,040522,000.0,W*73
$GPGGA,141716.091,3117.445,N,12112.703,E,1,12,1.0,0.0,M,0.0,M,,*66
$GPGSA,A,3,01,02,03,04,05,06,07,08,09,10,11,12,1.0,1.0,1.0*30
$GPRMC,141716.091,A,3117.445,N,12112.703,E,008.0,238.0,040522,000.0,W*72
$GPGGA,141717.091,3117.444,N,12112.700,E,1,12,1.0,0.0,M,0.0,M,,*65
$GPGSA,A,3,01,02,03,04,05,06,07,08,09,10,11,12,1.0,1.0,1.0*30
$GPRMC,141717.091,A,3117.444,N,12112.700,E,007.5,211.2,040522,000.0,W*72
$GPGGA,141718.091,3117.442,N,12112.699,E,1,12,1.0,0.0,M,0.0,M,,*6D
$GPGSA,A,3,01,02,03,04,05,06,07,08,09,10,11,12,1.0,1.0,1.0*30
$GPRMC,141718.091,A,3117.442,N,12112.699,E,007.2,215.0,040522,000.0,W*7B
$GPGGA,141719.091,3117.440,N,12112.698,E,1,12,1.0,0.0,M,0.0,M,,*6F
$GPGSA,A,3,01,02,03,04,05,06,07,08,09,10,11,12,1.0,1.0,1.0*30
$GPRMC,141719.091,A,3117.440,N,12112.698,E,007.8,214.7,040522,000.0,W*75
$GPGGA,141720.091,3117.439,N,12112.697,E,1,12,1.0,0.0,M,0.0,M,,*64
$GPGSA,A,3,01,02,03,04,05,06,07,08,09,10,11,12,1.0,1.0,1.0*30
$GPRMC,141720.091,A,3117.439,N,12112.697,E,007.0,206.3,040522,000.0,W*71
$GPGGA,141721.091,3117.437,N,12112.696,E,1,12,1.0,0.0,M,0.0,M,,*6A
$GPGSA,A,3,01,02,03,04,05,06,07,08,09,10,11,12,1.0,1.0,1.0*30
$GPRMC,141721.091,A,3117.437,N,12112.696,E,009.6,115.6,040522,000.0,W*73
$GPGGA,141722.091,3117.435,N,12112.699,E,1,12,1.0,0.0,M,0.0,M,,*64
$GPGSA,A,3,01,02,03,04,05,06,07,08,09,10,11,12,1.0,1.0,1.0*30
$GPRMC,141722.091,A,3117.435,N,12112.699,E,007.2,113.2,040522,000.0,W*75
$GPGGA,141723.091,3117.435,N,12112.701,E,1,12,1.0,0.0,M,0.0,M,,*65
$GPGSA,A,3,01,02,03,04,05,06,07,08,09,10,11,12,1.0,1.0,1.0*30
$GPRMC,141723.091,A,3117.435,N,12112.701,E,007.2,117.2,040522,000.0,W*70
$GPGGA,141724.091,3117.434,N,12112.703,E,1,12,1.0,0.0,M,0.0,M,,*61
$GPGSA,A,3,01,02,03,04,05,06,07,08,09,10,11,12,1.0,1.0,1.0*30
$GPRMC,141724.091,A,3117.434,N,12112.703,E,007.1,107.6,040522,000.0,W*72
$GPGGA,141725.091,3117.433,N,12112.705,E,1,12,1.0,0.0,M,0.0,M,,*61
$GPGSA,A,3,01,02,03,04,05,06,07,08,09,10,11,12,1.0,1.0,1.0*30
$GPRMC,141725.091,A,3117.433,N,12112.705,E,006.8,106.5,040522,000.0,W*78
$GPGGA,141726.091,3117.432,N,12112.707,E,1,12,1.0,0.0,M,0.0,M,,*61
$GPGSA,A,3,01,02,03,04,05,06,07,08,09,10,11,12,1.0,1.0,1.0*30
$GPRMC,141726.091,A,3117.432,N,12112.707,E,008.5,112.5,040522,000.0,W*7E
$GPGGA,141727.091,3117.431,N,12112.710,E,1,12,1.0,0.0,M,0.0,M,,*65
$GPGSA,A,3,01,02,03,04,05,06,07,08,09,10,11,12,1.0,1.0,1.0*30
$GPRMC,141727.091,A,3117.431,N,12112.710,E,004.7,111.9,040522,000.0,W*7B
$GPGGA,141728.091,3117.431,N,12112.711,E,1,12,1.0,0.0,M,0.0,M,,*6B
$GPGSA,A,3,01,02,03,04,05,06,07,08,09,10,11,12,1.0,1.0,1.0*30
$GPRMC,141728.091,A,3117.431,N,12112.711,E,007.2,109.2,040522,000.0,W*71
$GPGGA,141729.091,3117.430,N,12112.713,E,1,12,1.0,0.0,M,0.0,M,,*69
$GPGSA,A,3,01,02,03,04,05,06,07,08,09,10,11,12,1.0,1.0,1.0*30
$GPRMC,141729.091,A,3117.430,N,12112.713,E,005.5,121.7,040522,000.0,W*79
$GPGGA,141730.091,3117.429,N,12112.715,E,1,12,1.0,0.0,M,0.0,M,,*6F
$GPGSA,A,3,01,02,03,04,05,06,07,08,09,10,11,12,1.0,1.0,1.0*30
$GPRMC,141730.091,A,3117.429,N,12112.715,E,009.1,292.5,040522,000.0,W*7E
$GPGGA,141731.091,3117.430,N,12112.712,E,1,12,1.0,0.0,M,0.0,M,,*61
$GPGSA,A,3,01,02,03,04,05,06,07,08,09,10,11,12,1.0,1.0,1.0*30
$GPRMC,141731.091,A,3117.430,N,12112.712,E,004.4,161.0,040522,000.0,W*72
$GPGGA,141732.091,3117.429,N,12112.712,E,1,12,1.0,0.0,M,0.0,M,,*6A
$GPGSA,A,3,01,02,03,04,05,06,07,08,09,10,11,12,1.0,1.0,1.0*30
$GPRMC,141732.091,A,3117.429,N,12112.712,E,007.0,143.9,040522,000.0,W*77
$GPGGA,141733.091,3117.427,N,12112.713,E,1,12,1.0,0.0,M,0.0,M,,*64
$GPGSA,A,3,01,02,03,04,05,06,07,08,09,10,11,12,1.0,1.0,1.0*30
$GPRMC,141733.091,A,3117.427,N,12112.713,E,007.0,160.9,040522,000.0,W*78
$GPGGA,141734.091,3117.425,N,12112.714,E,1,12,1.0,0.0,M,0.0,M,,*66
$GPGSA,A,3,01,02,03,04,05,06,07,08,09,10,11,12,1.0,1.0,1.0*30
$GPRMC,141734.091,A,3117.425,N,12112.714,E,008.8,212.6,040522,000.0,W*74
$GPGGA,141735.091,3117.423,N,12112.713,E,1,12,1.0,0.0,M,0.0,M,,*66
$GPGSA,A,3,01,02,03,04,05,06,07,08,09,10,11,12,1.0,1.0,1.0*30
$GPRMC,141735.091,A,3117.423,N,12112.713,E,022.8,356.4,040522,000.0,W*7F
$GPGGA,141736.091,3117.430,N,12112.712,E,1,12,1.0,0.0,M,0.0,M,,*66
$GPGSA,A,3,01,02,03,04,05,06,07,08,09,10,11,12,1.0,1.0,1.0*30
$GPRMC,141736.091,A,3117.430,N,12112.712,E,008.2,301.1,040522,000.0,W*7A
$GPGGA,141737.091,3117.431,N,12112.710,E,1,12,1.0,0.0,M,0.0,M,,*64
$GPGSA,A,3,01,02,03,04,05,06,07,08,09,10,11,12,1.0,1.0,1.0*30
$GPRMC,141737.091,A,3117.431,N,12112.710,E,034.9,290.7,040522,000.0,W*73
$GPGGA,141738.091,3117.435,N,12112.700,E,1,12,1.0,0.0,M,0.0,M,,*6E
$GPGSA,A,3,01,02,03,04,05,06,07,08,09,10,11,12,1.0,1.0,1.0*30
$GPRMC,141738.091,A,3117.435,N,12112.700,E,013.5,294.9,040522,000.0,W*7A
$GPGGA,141739.091,3117.437,N,12112.696,E,1,12,1.0,0.0,M,0.0,M,,*63
$GPGSA,A,3,01,02,03,04,05,06,07,08,09,10,11,12,1.0,1.0,1.0*30
$GPRMC,141739.091,A,3117.437,N,12112.696,E,006.4,211.4,040522,000.0,W*72
$GPGGA,141740.091,3117.435,N,12112.695,E,1,12,1.0,0.0,M,0.0,M,,*6C
$GPGSA,A,3,01,02,03,04,05,06,07,08,09,10,11,12,1.0,1.0,1.0*30
$GPRMC,141740.091,A,3117.435,N,12112.695,E,008.9,217.9,040522,000.0,W*75
$GPGGA,141741.091,3117.433,N,12112.693,E,1,12,1.0,0.0,M,0.0,M,,*6D
$GPGSA,A,3,01,02,03,04,05,06,07,08,09,10,11,12,1.0,1.0,1.0*30
$GPRMC,141741.091,A,3117.433,N,12112.693,E,008.2,208.6,040522,000.0,W*7E
$GPGGA,141742.091,3117.431,N,12112.692,E,1,12,1.0,0.0,M,0.0,M,,*6D
$GPGSA,A,3,01,02,03,04,05,06,07,08,09,10,11,12,1.0,1.0,1.0*30
$GPRMC,141742.091,A,3117.431,N,12112.692,E,008.9,217.9,040522,000.0,W*74
$GPGGA,141743.091,3117.429,N,12112.691,E,1,12,1.0,0.0,M,0.0,M,,*66
$GPGSA,A,3,01,02,03,04,05,06,07,08,09,10,11,12,1.0,1.0,1.0*30
$GPRMC,141743.091,A,3117.429,N,12112.691,E,005.3,211.6,040522,000.0,W*71
$GPGGA,141744.091,3117.428,N,12112.690,E,1,12,1.0,0.0,M,0.0,M,,*61
$GPGSA,A,3,01,02,03,04,05,06,07,08,09,10,11,12,1.0,1.0,1.0*30
$GPRMC,141744.091,A,3117.428,N,12112.690,E,006.8,207.2,040522,000.0,W*7D
$GPGGA,141745.091,3117.426,N,12112.689,E,1,12,1.0,0.0,M,0.0,M,,*66
$GPGSA,A,3,01,02,03,04,05,06,07,08,09,10,11,12,1.0,1.0,1.0*30
$GPRMC,141745.091,A,3117.426,N,12112.689,E,003.8,117.8,040522,000.0,W*77
$GPGGA,141746.091,3117.425,N,12112.690,E,1,12,1.0,0.0,M,0.0,M,,*6E
$GPGSA,A,3,01,02,03,04,05,06,07,08,09,10,11,12,1.0,1.0,1.0*30
$GPRMC,141746.091,A,3117.425,N,12112.690,E,007.2,113.2,040522,000.0,W*7F
$GPGGA,141747.091,3117.424,N,12112.692,E,1,12,1.0,0.0,M,0.0,M,,*6C
$GPGSA,A,3,01,02,03,04,05,06,07,08,09,10,11,12,1.0,1.0,1.0*30
$GPRMC,141747.091,A,3117.424,N,12112.692,E,008.2,118.8,040522,000.0,W*73
$GPGGA,141748.091,3117.423,N,12112.694,E,1,12,1.0,0.0,M,0.0,M,,*62
$GPGSA,A,3,01,02,03,04,05,06,07,08,09,10,11,12,1.0,1.0,1.0*30
$GPRMC,141748.091,A,3117.423,N,12112.694,E,004.4,113.2,040522,000.0,W*76
$GPGGA,141749.091,3117.423,N,12112.696,E,1,12,1.0,0.0,M,0.0,M,,*61
$GPGSA,A,3,01,02,03,04,05,06,07,08,09,10,11,12,1.0,1.0,1.0*30
$GPRMC,141749.091,A,3117.423,N,12112.696,E,006.1,117.9,040522,000.0,W*7D
$GPGGA,141750.091,3117.422,N,12112.697,E,1,12,1.0,0.0,M,0.0,M,,*69
$GPGSA,A,3,01,02,03,04,05,06,07,08,09,10,11,12,1.0,1.0,1.0*30
$GPRMC,141750.091,A,3117.422,N,12112.697,E,006.5,118.6,040522,000.0,W*71
$GPGGA,141751.091,3117.421,N,12112.699,E,1,12,1.0,0.0,M,0.0,M,,*65
$GPGSA,A,3,01,02,03,04,05,06,07,08,09,10,11,12,1.0,1.0,1.0*30
$GPRMC,141751.091,A,3117.421,N,12112.699,E,004.9,116.7,040522,000.0,W*7C
$GPGGA,141752.091,3117.420,N,12112.700,E,1,12,1.0,0.0,M,0.0,M,,*66
$GPGSA,A,3,01,02,03,04,05,06,07,08,09,10,11,12,1.0,1.0,1.0*30
$GPRMC,141752.091,A,3117.420,N,12112.700,E,007.1,115.6,040522,000.0,W*76
$GPGGA,141753.091,3117.419,N,12112.702,E,1,12,1.0,0.0,M,0.0,M,,*6F
$GPGSA,A,3,01,02,03,04,05,06,07,08,09,10,11,12,1.0,1.0,1.0*30
$GPRMC,141753.091,A,3117.419,N,12112.702,E,005.5,105.9,040522,000.0,W*77
$GPGGA,141754.091,3117.419,N,12112.704,E,1,12,1.0,0.0,M,0.0,M,,*6E
$GPGSA,A,3,01,02,03,04,05,06,07,08,09,10,11,12,1.0,1.0,1.0*30
$GPRMC,141754.091,A,3117.419,N,12112.704,E,007.7,119.2,040522,000.0,W*70
$GPGGA,141755.091,3117.417,N,12112.706,E,1,12,1.0,0.0,M,0.0,M,,*63
$GPGSA,A,3,01,02,03,04,05,06,07,08,09,10,11,12,1.0,1.0,1.0*30
$GPRMC,141755.091,A,3117.417,N,12112.706,E,005.3,114.2,040522,000.0,W*76
$GPGGA,141756.091,3117.417,N,12112.708,E,1,12,1.0,0.0,M,0.0,M,,*6E
$GPGSA,A,3,01,02,03,04,05,06,07,08,09,10,11,12,1.0,1.0,1.0*30
$GPRMC,141756.091,A,3117.417,N,12112.708,E,014.9,296.3,040522,000.0,W*79
$GPGGA,141757.091,3117.419,N,12112.704,E,1,12,1.0,0.0,M,0.0,M,,*6D
$GPGSA,A,3,01,02,03,04,05,06,07,08,09,10,11,12,1.0,1.0,1.0*30
$GPRMC,141757.091,A,3117.419,N,12112.704,E,010.1,288.7,040522,000.0,W*7D
$GPGGA,141758.091,3117.420,N,12112.701,E,1,12,1.0,0.0,M,0.0,M,,*6D
$GPGSA,A,3,01,02,03,04,05,06,07,08,09,10,11,12,1.0,1.0,1.0*30
$GPRMC,141758.091,A,3117.420,N,12112.701,E,013.2,294.5,040522,000.0,W*72
$GPGGA,141759.091,3117.422,N,12112.697,E,1,12,1.0,0.0,M,0.0,M,,*60
$GPGSA,A,3,01,02,03,04,05,06,07,08,09,10,11,12,1.0,1.0,1.0*30
$GPRMC,141759.091,A,3117.422,N,12112.697,E,009.6,302.4,040522,000.0,W*7F
$GPGGA,141800.091,3117.423,N,12112.694,E,1,12,1.0,0.0,M,0.0,M,,*61
$GPGSA,A,3,01,02,03,04,05,06,07,08,09,10,11,12,1.0,1.0,1.0*30
$GPRMC,141800.091,A,3117.423,N,12112.694,E,016.6,294.9,040522,000.0,W*73
$GPGGA,141801.091,3117.425,N,12112.690,E,1,12,1.0,0.0,M,0.0,M,,*62
$GPGSA,A,3,01,02,03,04,05,06,07,08,09,10,11,12,1.0,1.0,1.0*30
$GPRMC,141801.091,A,3117.425,N,12112.690,E,003.0,291.3,040522,000.0,W*7D
$GPGGA,141802.091,3117.426,N,12112.689,E,1,12,1.0,0.0,M,0.0,M,,*6A
$GPGSA,A,3,01,02,03,04,05,06,07,08,09,10,11,12,1.0,1.0,1.0*30
$GPRMC,141802.091,A,3117.426,N,12112.689,E,007.2,210.3,040522,000.0,W*7A
$GPGGA,141803.091,3117.424,N,12112.688,E,1,12,1.0,0.0,M,0.0,M,,*68
$GPGSA,A,3,01,02,03,04,05,06,07,08,09,10,11,12,1.0,1.0,1.0*30
$GPRMC,141803.091,A,3117.424,N,12112.688,E,005.7,206.6,040522,000.0,W*7D
$GPGGA,141804.091,3117.422,N,12112.687,E,1,12,1.0,0.0,M,0.0,M,,*66
$GPGSA,A,3,01,02,03,04,05,06,07,08,09,10,11,12,1.0,1.0,1.0*30
$GPRMC,141804.091,A,3117.422,N,12112.687,E,007.1,208.3,040522,000.0,W*7C
$GPGGA,141805.091,3117.421,N,12112.686,E,1,12,1.0,0.0,M,0.0,M,,*65
$GPGSA,A,3,01,02,03,04,05,06,07,08,09,10,11,12,1.0,1.0,1.0*30
$GPRMC,141805.091,A,3117.421,N,12112.686,E,007.0,216.1,040522,000.0,W*73
$GPGGA,141806.091,3117.419,N,12112.685,E,1,12,1.0,0.0,M,0.0,M,,*6E
$GPGSA,A,3,01,02,03,04,05,06,07,08,09,10,11,12,1.0,1.0,1.0*30
$GPRMC,141806.091,A,3117.419,N,12112.685,E,008.5,209.5,040522,000.0,W*78
$GPGGA,141807.091,3117.417,N,12112.683,E,1,12,1.0,0.0,M,0.0,M,,*67
$GPGSA,A,3,01,02,03,04,05,06,07,08,09,10,11,12,1.0,1.0,1.0*30
$GPRMC,141807.091,A,3117.417,N,12112.683,E,006.8,081.0,040522,000.0,W*75
$GPGGA,141808.091,3117.417,N,12112.686,E,1,12,1.0,0.0,M,0.0,M,,*6D
$GPGSA,A,3,01,02,03,04,05,06,07,08,09,10,11,12,1.0,1.0,1.0*30
$GPRMC,141808.091,A,3117.417,N,12112.686,E,007.4,086.7,040522,000.0,W*72
$GPGGA,141809.091,3117.417,N,12112.688,E,1,12,1.0,0.0,M,0.0,M,,*62
$GPGSA,A,3,01,02,03,04,05,06,07,08,09,10,11,12,1.0,1.0,1.0*30
$GPRMC,141809.091,A,3117.417,N,12112.688,E,007.8,138.4,040522,000.0,W*76
$GPGGA,141810.091,3117.416,N,12112.690,E,1,12,1.0,0.0,M,0.0,M,,*62
$GPGSA,A,3,01,02,03,04,05,06,07,08,09,10,11,12,1.0,1.0,1.0*30
$GPRMC,141810.091,A,3117.416,N,12112.690,E,006.3,209.2,040522,000.0,W*7B
$GPGGA,141811.091,3117.414,N,12112.689,E,1,12,1.0,0.0,M,0.0,M,,*69
$GPGSA,A,3,01,02,03,04,05,06,07,08,09,10,11,12,1.0,1.0,1.0*30
$GPRMC,141811.091,A,3117.414,N,12112.689,E,006.3,226.3,040522,000.0,W*7C
$GPGGA,141812.091,3117.413,N,12112.687,E,1,12,1.0,0.0,M,0.0,M,,*63
$GPGSA,A,3,01,02,03,04,05,06,07,08,09,10,11,12,1.0,1.0,1.0*30
$GPRMC,141812.091,A,3117.413,N,12112.687,E,005.9,257.4,040522,000.0,W*7E
$GPGGA,141813.091,3117.412,N,12112.685,E,1,12,1.0,0.0,M,0.0,M,,*61
$GPGSA,A,3,01,02,03,04,05,06,07,08,09,10,11,12,1.0,1.0,1.0*30
$GPRMC,141813.091,A,3117.412,N,12112.685,E,006.9,292.3,040522,000.0,W*71
$GPGGA,141814.091,3117.413,N,12112.683,E,1,12,1.0,0.0,M,0.0,M,,*61
$GPGSA,A,3,01,02,03,04,05,06,07,08,09,10,11,12,1.0,1.0,1.0*30
$GPRMC,141814.091,A,3117.413,N,12112.683,E,006.4,320.2,040522,000.0,W*75
$GPGGA,141815.091,3117.415,N,12112.682,E,1,12,1.0,0.0,M,0.0,M,,*67
$GPGSA,A,3,01,02,03,04,05,06,07,08,09,10,11,12,1.0,1.0,1.0*30
$GPRMC,141815.091,A,3117.415,N,12112.682,E,005.4,018.5,040522,000.0,W*7F
$GPGGA,141816.091,3117.416,N,12112.683,E,1,12,1.0,0.0,M,0.0,M,,*66
$GPGSA,A,3,01,02,03,04,05,06,07,08,09,10,11,12,1.0,1.0,1.0*30
$GPRMC,141816.091,A,3117.416,N,12112.683,E,005.7,200.4,040522,000.0,W*77
$GPGGA,141817.091,3117.415,N,12112.682,E,1,12,1.0,0.0,M,0.0,M,,*65
$GPGSA,A,3,01,02,03,04,05,06,07,08,09,10,11,12,1.0,1.0,1.0*30
$GPRMC,141817.091,A,3117.415,N,12112.682,E,020.4,124.8,040522,000.0,W*79
$GPGGA,141818.091,3117.411,N,12112.687,E,1,12,1.0,0.0,M,0.0,M,,*6B
$GPGSA,A,3,01,02,03,04,05,06,07,08,09,10,11,12,1.0,1.0,1.0*30
$GPRMC,141818.091,A,3117.411,N,12112.687,E,009.5,114.4,040522,000.0,W*72
$GPGGA,141819.091,3117.410,N,12112.690,E,1,12,1.0,0.0,M,0.0,M,,*6D
$GPGSA,A,3,01,02,03,04,05,06,07,08,09,10,11,12,1.0,1.0,1.0*30
$GPRMC,141819.091,A,3117.410,N,12112.690,E,006.1,117.9,040522,000.0,W*71
$GPGGA,141820.091,3117.409,N,12112.692,E,1,12,1.0,0.0,M,0.0,M,,*6D
$GPGSA,A,3,01,02,03,04,05,06,07,08,09,10,11,12,1.0,1.0,1.0*30
$GPRMC,141820.091,A,3117.409,N,12112.692,E,006.6,120.3,040522,000.0,W*78
$GPGGA,141821.091,3117.408,N,12112.694,E,1,12,1.0,0.0,M,0.0,M,,*6B
$GPGSA,A,3,01,02,03,04,05,06,07,08,09,10,11,12,1.0,1.0,1.0*30
$GPRMC,141821.091,A,3117.408,N,12112.694,E,008.8,115.1,040522,000.0,W*7A
$GPGGA,141822.091,3117.407,N,12112.696,E,1,12,1.0,0.0,M,0.0,M,,*65
$GPGSA,A,3,01,02,03,04,05,06,07,08,09,10,11,12,1.0,1.0,1.0*30
$GPRMC,141822.091,A,3117.407,N,12112.696,E,006.6,113.2,040522,000.0,W*71
$GPGGA,141823.091,3117.406,N,12112.698,E,1,12,1.0,0.0,M,0.0,M,,*6B
$GPGSA,A,3,01,02,03,04,05,06,07,08,09,10,11,12,1.0,1.0,1.0*30
$GPRMC,141823.091,A,3117.406,N,12112.698,E,009.9,122.7,040522,000.0,W*78
$GPGGA,141824.091,3117.404,N,12112.701,E,1,12,1.0,0.0,M,0.0,M,,*6F
$GPGSA,A,3,01,02,03,04,05,06,07,08,09,10,11,12,1.0,1.0,1.0*30
$GPRMC,141824.091,A,3117.404,N,12112.701,E,009.9,122.7,040522,000.0,W*7C
